[
  {"name": "北京市", "province": "北京市", "lat": 39.9042, "lng": 116.4074},
  {"name": "天津市", "province": "天津市", "lat": 39.1256, "lng": 117.1909},
  {"name": "石家庄市", "province": "河北省", "lat": 38.0428, "lng": 114.5149},
  {"name": "唐山市", "province": "河北省", "lat": 39.6309, "lng": 118.1802},
  {"name": "秦皇岛市", "province": "河北省", "lat": 39.9354, "lng": 119.5993},
  {"name": "邯郸市", "province": "河北省", "lat": 36.6258, "lng": 114.5391},
  {"name": "邢台市", "province": "河北省", "lat": 37.0682, "lng": 114.5048},
  {"name": "保定市", "province": "河北省", "lat": 38.8739, "lng": 115.4646},
  {"name": "张家口市", "province": "河北省", "lat": 40.7677, "lng": 114.8867},
  {"name": "承德市", "province": "河北省", "lat": 40.9510, "lng": 117.9636},
  {"name": "沧州市", "province": "河北省", "lat": 38.3037, "lng": 116.8388},
  {"name": "廊坊市", "province": "河北省", "lat": 39.5186, "lng": 116.6838},
  {"name": "衡水市", "province": "河北省", "lat": 37.7348, "lng": 115.6704},
  {"name": "太原市", "province": "山西省", "lat": 37.8706, "lng": 112.5489},
  {"name": "大同市", "province": "山西省", "lat": 40.0763, "lng": 113.2958},
  {"name": "阳泉市", "province": "山西省", "lat": 37.8565, "lng": 113.5803},
  {"name": "长治市", "province": "山西省", "lat": 36.1954, "lng": 113.1163},
  {"name": "晋城市", "province": "山西省", "lat": 35.4904, "lng": 112.8511},
  {"name": "朔州市", "province": "山西省", "lat": 39.3310, "lng": 112.4329},
  {"name": "晋中市", "province": "山西省", "lat": 37.6872, "lng": 112.7526},
  {"name": "运城市", "province": "山西省", "lat": 35.0268, "lng": 111.0071},
  {"name": "忻州市", "province": "山西省", "lat": 38.4162, "lng": 112.7341},
  {"name": "临汾市", "province": "山西省", "lat": 36.0881, "lng": 111.5190},
  {"name": "吕梁市", "province": "山西省", "lat": 37.5194, "lng": 111.1410},
  {"name": "呼和浩特市", "province": "内蒙古", "lat": 40.8414, "lng": 111.7519},
  {"name": "包头市", "province": "内蒙古", "lat": 40.6571, "lng": 109.8400},
  {"name": "乌海市", "province": "内蒙古", "lat": 39.6532, "lng": 106.7946},
  {"name": "赤峰市", "province": "内蒙古", "lat": 42.2572, "lng": 118.8863},
  {"name": "通辽市", "province": "内蒙古", "lat": 43.6174, "lng": 122.2439},
  {"name": "鄂尔多斯市", "province": "内蒙古", "lat": 39.6086, "lng": 109.7813},
  {"name": "呼伦贝尔市", "province": "内蒙古", "lat": 49.2117, "lng": 119.7653},
  {"name": "巴彦淖尔市", "province": "内蒙古", "lat": 40.7433, "lng": 107.3872},
  {"name": "乌兰察布市", "province": "内蒙古", "lat": 41.0223, "lng": 113.1325},
  {"name": "沈阳市", "province": "辽宁省", "lat": 41.8057, "lng": 123.4315},
  {"name": "大连市", "province": "辽宁省", "lat": 38.9140, "lng": 121.6147},
  {"name": "鞍山市", "province": "辽宁省", "lat": 41.1087, "lng": 122.9956},
  {"name": "抚顺市", "province": "辽宁省", "lat": 41.8808, "lng": 123.9573},
  {"name": "本溪市", "province": "辽宁省", "lat": 41.2976, "lng": 123.7662},
  {"name": "丹东市", "province": "辽宁省", "lat": 40.0006, "lng": 124.3546},
  {"name": "锦州市", "province": "辽宁省", "lat": 41.0950, "lng": 121.1270},
  {"name": "营口市", "province": "辽宁省", "lat": 40.6667, "lng": 122.2350},
  {"name": "阜新市", "province": "辽宁省", "lat": 42.0218, "lng": 121.6709},
  {"name": "辽阳市", "province": "辽宁省", "lat": 41.2681, "lng": 123.1728},
  {"name": "盘锦市", "province": "辽宁省", "lat": 41.1198, "lng": 122.0707},
  {"name": "铁岭市", "province": "辽宁省", "lat": 42.2861, "lng": 123.8413},
  {"name": "朝阳市", "province": "辽宁省", "lat": 41.5718, "lng": 120.4510},
  {"name": "葫芦岛市", "province": "辽宁省", "lat": 40.7556, "lng": 120.8372},
  {"name": "长春市", "province": "吉林省", "lat": 43.8171, "lng": 125.3235},
  {"name": "吉林市", "province": "吉林省", "lat": 43.8378, "lng": 126.5495},
  {"name": "四平市", "province": "吉林省", "lat": 43.1666, "lng": 124.3504},
  {"name": "辽源市", "province": "吉林省", "lat": 42.8877, "lng": 125.1452},
  {"name": "通化市", "province": "吉林省", "lat": 41.7285, "lng": 125.9395},
  {"name": "白山市", "province": "吉林省", "lat": 41.9425, "lng": 126.4146},
  {"name": "松原市", "province": "吉林省", "lat": 45.1411, "lng": 124.8232},
  {"name": "白城市", "province": "吉林省", "lat": 45.6197, "lng": 122.8389},
  {"name": "延边州", "province": "吉林省", "lat": 42.9089, "lng": 129.5085},
  {"name": "哈尔滨市", "province": "黑龙江省", "lat": 45.8038, "lng": 126.5340},
  {"name": "齐齐哈尔市", "province": "黑龙江省", "lat": 47.3542, "lng": 123.9180},
  {"name": "鸡西市", "province": "黑龙江省", "lat": 45.2950, "lng": 130.9697},
  {"name": "鹤岗市", "province": "黑龙江省", "lat": 47.3500, "lng": 130.2978},
  {"name": "双鸭山市", "province": "黑龙江省", "lat": 46.6464, "lng": 131.1590},
  {"name": "大庆市", "province": "黑龙江省", "lat": 46.5900, "lng": 125.1030},
  {"name": "伊春市", "province": "黑龙江省", "lat": 47.7273, "lng": 128.8411},
  {"name": "佳木斯市", "province": "黑龙江省", "lat": 46.8137, "lng": 130.3219},
  {"name": "七台河市", "province": "黑龙江省", "lat": 45.7716, "lng": 131.0030},
  {"name": "牡丹江市", "province": "黑龙江省", "lat": 44.5526, "lng": 129.6329},
  {"name": "黑河市", "province": "黑龙江省", "lat": 50.2456, "lng": 127.5286},
  {"name": "绥化市", "province": "黑龙江省", "lat": 46.6374, "lng": 126.9688},
  {"name": "上海市", "province": "上海市", "lat": 31.2304, "lng": 121.4737},
  {"name": "南京市", "province": "江苏省", "lat": 32.0603, "lng": 118.7969},
  {"name": "无锡市", "province": "江苏省", "lat": 31.4912, "lng": 120.3119},
  {"name": "徐州市", "province": "江苏省", "lat": 34.2044, "lng": 117.2860},
  {"name": "常州市", "province": "江苏省", "lat": 31.8106, "lng": 119.9741},
  {"name": "苏州市", "province": "江苏省", "lat": 31.2989, "lng": 120.5853},
  {"name": "南通市", "province": "江苏省", "lat": 31.9805, "lng": 120.8943},
  {"name": "连云港市", "province": "江苏省", "lat": 34.5967, "lng": 119.2214},
  {"name": "淮安市", "province": "江苏省", "lat": 33.6104, "lng": 119.0153},
  {"name": "盐城市", "province": "江苏省", "lat": 33.3476, "lng": 120.1632},
  {"name": "扬州市", "province": "江苏省", "lat": 32.3941, "lng": 119.4128},
  {"name": "镇江市", "province": "江苏省", "lat": 32.1880, "lng": 119.4256},
  {"name": "泰州市", "province": "江苏省", "lat": 32.4559, "lng": 119.9233},
  {"name": "宿迁市", "province": "江苏省", "lat": 33.9631, "lng": 118.2750},
  {"name": "杭州市", "province": "浙江省", "lat": 30.2741, "lng": 120.1551},
  {"name": "宁波市", "province": "浙江省", "lat": 29.8683, "lng": 121.5440},
  {"name": "温州市", "province": "浙江省", "lat": 27.9939, "lng": 120.6994},
  {"name": "嘉兴市", "province": "浙江省", "lat": 30.7522, "lng": 120.7555},
  {"name": "湖州市", "province": "浙江省", "lat": 30.8927, "lng": 120.0933},
  {"name": "绍兴市", "province": "浙江省", "lat": 30.0303, "lng": 120.5802},
  {"name": "金华市", "province": "浙江省", "lat": 29.0787, "lng": 119.6479},
  {"name": "衢州市", "province": "浙江省", "lat": 28.9358, "lng": 118.8592},
  {"name": "舟山市", "province": "浙江省", "lat": 29.9853, "lng": 122.2071},
  {"name": "台州市", "province": "浙江省", "lat": 28.6561, "lng": 121.4209},
  {"name": "丽水市", "province": "浙江省", "lat": 28.4679, "lng": 119.9229},
  {"name": "合肥市", "province": "安徽省", "lat": 31.8206, "lng": 117.2272},
  {"name": "芜湖市", "province": "安徽省", "lat": 31.3527, "lng": 118.3762},
  {"name": "蚌埠市", "province": "安徽省", "lat": 32.9167, "lng": 117.3893},
  {"name": "淮南市", "province": "安徽省", "lat": 32.6253, "lng": 116.9997},
  {"name": "马鞍山市", "province": "安徽省", "lat": 31.6707, "lng": 118.5060},
  {"name": "淮北市", "province": "安徽省", "lat": 33.9546, "lng": 116.7948},
  {"name": "铜陵市", "province": "安徽省", "lat": 30.9299, "lng": 117.8119},
  {"name": "安庆市", "province": "安徽省", "lat": 30.5138, "lng": 117.0630},
  {"name": "黄山市", "province": "安徽省", "lat": 29.7147, "lng": 118.3384},
  {"name": "滁州市", "province": "安徽省", "lat": 32.3017, "lng": 118.3171},
  {"name": "阜阳市", "province": "安徽省", "lat": 32.8896, "lng": 115.8142},
  {"name": "宿州市", "province": "安徽省", "lat": 33.6361, "lng": 116.9639},
  {"name": "六安市", "province": "安徽省", "lat": 31.7345, "lng": 116.5088},
  {"name": "亳州市", "province": "安徽省", "lat": 33.8693, "lng": 115.7787},
  {"name": "池州市", "province": "安徽省", "lat": 30.6570, "lng": 117.4924},
  {"name": "宣城市", "province": "安徽省", "lat": 30.9405, "lng": 118.7590},
  {"name": "福州市", "province": "福建省", "lat": 26.0745, "lng": 119.2965},
  {"name": "厦门市", "province": "福建省", "lat": 24.4798, "lng": 118.0894},
  {"name": "莆田市", "province": "福建省", "lat": 25.4540, "lng": 119.0078},
  {"name": "三明市", "province": "福建省", "lat": 26.2654, "lng": 117.6389},
  {"name": "泉州市", "province": "福建省", "lat": 24.8741, "lng": 118.6757},
  {"name": "漳州市", "province": "福建省", "lat": 24.5130, "lng": 117.6471},
  {"name": "南平市", "province": "福建省", "lat": 26.6418, "lng": 118.1784},
  {"name": "龙岩市", "province": "福建省", "lat": 25.0758, "lng": 117.0298},
  {"name": "宁德市", "province": "福建省", "lat": 26.6617, "lng": 119.5478},
  {"name": "南昌市", "province": "江西省", "lat": 28.6829, "lng": 115.8579},
  {"name": "景德镇市", "province": "江西省", "lat": 29.2686, "lng": 117.1788},
  {"name": "萍乡市", "province": "江西省", "lat": 27.6229, "lng": 113.8543},
  {"name": "九江市", "province": "江西省", "lat": 29.7051, "lng": 116.0021},
  {"name": "新余市", "province": "江西省", "lat": 27.8179, "lng": 114.9179},
  {"name": "鹰潭市", "province": "江西省", "lat": 28.2381, "lng": 117.0695},
  {"name": "赣州市", "province": "江西省", "lat": 25.8318, "lng": 114.9349},
  {"name": "吉安市", "province": "江西省", "lat": 27.1138, "lng": 114.9929},
  {"name": "宜春市", "province": "江西省", "lat": 27.8137, "lng": 114.4161},
  {"name": "抚州市", "province": "江西省", "lat": 27.9478, "lng": 116.3582},
  {"name": "上饶市", "province": "江西省", "lat": 28.4552, "lng": 117.9433},
  {"name": "济南市", "province": "山东省", "lat": 36.6512, "lng": 117.1201},
  {"name": "青岛市", "province": "山东省", "lat": 36.0671, "lng": 120.3826},
  {"name": "淄博市", "province": "山东省", "lat": 36.8133, "lng": 118.0548},
  {"name": "枣庄市", "province": "山东省", "lat": 34.8564, "lng": 117.3238},
  {"name": "东营市", "province": "山东省", "lat": 37.4336, "lng": 118.6744},
  {"name": "烟台市", "province": "山东省", "lat": 37.4638, "lng": 121.4479},
  {"name": "潍坊市", "province": "山东省", "lat": 36.7069, "lng": 119.1619},
  {"name": "济宁市", "province": "山东省", "lat": 35.4154, "lng": 116.5871},
  {"name": "泰安市", "province": "山东省", "lat": 36.1880, "lng": 117.0874},
  {"name": "威海市", "province": "山东省", "lat": 37.5133, "lng": 122.1209},
  {"name": "日照市", "province": "山东省", "lat": 35.4164, "lng": 119.5269},
  {"name": "临沂市", "province": "山东省", "lat": 35.1041, "lng": 118.3564},
  {"name": "德州市", "province": "山东省", "lat": 37.4349, "lng": 116.3575},
  {"name": "聊城市", "province": "山东省", "lat": 36.4567, "lng": 115.9851},
  {"name": "滨州市", "province": "山东省", "lat": 37.3821, "lng": 117.9712},
  {"name": "菏泽市", "province": "山东省", "lat": 35.2464, "lng": 115.4804},
  {"name": "郑州市", "province": "河南省", "lat": 34.7466, "lng": 113.6254},
  {"name": "开封市", "province": "河南省", "lat": 34.7972, "lng": 114.3076},
  {"name": "洛阳市", "province": "河南省", "lat": 34.6183, "lng": 112.4540},
  {"name": "平顶山市", "province": "河南省", "lat": 33.7352, "lng": 113.1928},
  {"name": "安阳市", "province": "河南省", "lat": 36.0979, "lng": 114.3929},
  {"name": "鹤壁市", "province": "河南省", "lat": 35.7483, "lng": 114.2975},
  {"name": "新乡市", "province": "河南省", "lat": 35.3026, "lng": 113.9268},
  {"name": "焦作市", "province": "河南省", "lat": 35.2156, "lng": 113.2420},
  {"name": "濮阳市", "province": "河南省", "lat": 35.7619, "lng": 115.0291},
  {"name": "许昌市", "province": "河南省", "lat": 34.0219, "lng": 113.8522},
  {"name": "漯河市", "province": "河南省", "lat": 33.5816, "lng": 114.0166},
  {"name": "三门峡市", "province": "河南省", "lat": 34.7726, "lng": 111.2006},
  {"name": "南阳市", "province": "河南省", "lat": 32.9909, "lng": 112.5283},
  {"name": "商丘市", "province": "河南省", "lat": 34.4149, "lng": 115.6506},
  {"name": "信阳市", "province": "河南省", "lat": 32.1285, "lng": 114.0913},
  {"name": "周口市", "province": "河南省", "lat": 33.6251, "lng": 114.6969},
  {"name": "驻马店市", "province": "河南省", "lat": 33.0114, "lng": 114.0220},
  {"name": "武汉市", "province": "湖北省", "lat": 30.5928, "lng": 114.3055},
  {"name": "黄石市", "province": "湖北省", "lat": 30.1997, "lng": 115.0389},
  {"name": "十堰市", "province": "湖北省", "lat": 32.6292, "lng": 110.7979},
  {"name": "宜昌市", "province": "湖北省", "lat": 30.6919, "lng": 111.2864},
  {"name": "襄阳市", "province": "湖北省", "lat": 32.0089, "lng": 112.1220},
  {"name": "鄂州市", "province": "湖北省", "lat": 30.3906, "lng": 114.8945},
  {"name": "荆门市", "province": "湖北省", "lat": 31.0354, "lng": 112.1996},
  {"name": "孝感市", "province": "湖北省", "lat": 30.9246, "lng": 113.9269},
  {"name": "荆州市", "province": "湖北省", "lat": 30.3269, "lng": 112.2390},
  {"name": "黄冈市", "province": "湖北省", "lat": 30.4462, "lng": 114.8723},
  {"name": "咸宁市", "province": "湖北省", "lat": 29.8329, "lng": 114.3225},
  {"name": "随州市", "province": "湖北省", "lat": 31.6903, "lng": 113.3825},
  {"name": "恩施州", "province": "湖北省", "lat": 30.2722, "lng": 109.4889},
  {"name": "长沙市", "province": "湖南省", "lat": 28.2278, "lng": 112.9388},
  {"name": "株洲市", "province": "湖南省", "lat": 27.8274, "lng": 113.1340},
  {"name": "湘潭市", "province": "湖南省", "lat": 27.8296, "lng": 112.9440},
  {"name": "衡阳市", "province": "湖南省", "lat": 26.8930, "lng": 112.5718},
  {"name": "邵阳市", "province": "湖南省", "lat": 27.2386, "lng": 111.4680},
  {"name": "岳阳市", "province": "湖南省", "lat": 29.3570, "lng": 113.1292},
  {"name": "常德市", "province": "湖南省", "lat": 29.0317, "lng": 111.6986},
  {"name": "张家界市", "province": "湖南省", "lat": 29.1169, "lng": 110.4793},
  {"name": "益阳市", "province": "湖南省", "lat": 28.5530, "lng": 112.3552},
  {"name": "郴州市", "province": "湖南省", "lat": 25.7702, "lng": 113.0149},
  {"name": "永州市", "province": "湖南省", "lat": 26.4203, "lng": 111.6132},
  {"name": "怀化市", "province": "湖南省", "lat": 27.5494, "lng": 109.9777},
  {"name": "娄底市", "province": "湖南省", "lat": 27.7006, "lng": 111.9937},
  {"name": "湘西州", "province": "湖南省", "lat": 28.3117, "lng": 109.7389},
  {"name": "广州市", "province": "广东省", "lat": 23.1291, "lng": 113.2644},
  {"name": "韶关市", "province": "广东省", "lat": 24.8108, "lng": 113.5975},
  {"name": "深圳市", "province": "广东省", "lat": 22.5431, "lng": 114.0579},
  {"name": "珠海市", "province": "广东省", "lat": 22.2710, "lng": 113.5767},
  {"name": "汕头市", "province": "广东省", "lat": 23.3539, "lng": 116.6815},
  {"name": "佛山市", "province": "广东省", "lat": 23.0218, "lng": 113.1219},
  {"name": "江门市", "province": "广东省", "lat": 22.5788, "lng": 113.0814},
  {"name": "湛江市", "province": "广东省", "lat": 21.2707, "lng": 110.3594},
  {"name": "茂名市", "province": "广东省", "lat": 21.6633, "lng": 110.9254},
  {"name": "肇庆市", "province": "广东省", "lat": 23.0478, "lng": 112.4654},
  {"name": "惠州市", "province": "广东省", "lat": 23.1115, "lng": 114.4161},
  {"name": "梅州市", "province": "广东省", "lat": 24.2886, "lng": 116.1226},
  {"name": "汕尾市", "province": "广东省", "lat": 22.7858, "lng": 115.3752},
  {"name": "河源市", "province": "广东省", "lat": 23.7463, "lng": 114.7001},
  {"name": "阳江市", "province": "广东省", "lat": 21.8579, "lng": 111.9823},
  {"name": "清远市", "province": "广东省", "lat": 23.6820, "lng": 113.0561},
  {"name": "东莞市", "province": "广东省", "lat": 23.0207, "lng": 113.7518},
  {"name": "中山市", "province": "广东省", "lat": 22.5176, "lng": 113.3929},
  {"name": "潮州市", "province": "广东省", "lat": 23.6567, "lng": 116.6223},
  {"name": "揭阳市", "province": "广东省", "lat": 23.5499, "lng": 116.3728},
  {"name": "云浮市", "province": "广东省", "lat": 22.9151, "lng": 112.0444},
  {"name": "南宁市", "province": "广西", "lat": 22.8170, "lng": 108.3665},
  {"name": "柳州市", "province": "广西", "lat": 24.3264, "lng": 109.4281},
  {"name": "桂林市", "province": "广西", "lat": 25.2742, "lng": 110.2992},
  {"name": "梧州市", "province": "广西", "lat": 23.4769, "lng": 111.2791},
  {"name": "北海市", "province": "广西", "lat": 21.4816, "lng": 109.1202},
  {"name": "防城港市", "province": "广西", "lat": 21.6868, "lng": 108.3537},
  {"name": "钦州市", "province": "广西", "lat": 21.9797, "lng": 108.6543},
  {"name": "贵港市", "province": "广西", "lat": 23.1114, "lng": 109.5988},
  {"name": "玉林市", "province": "广西", "lat": 22.6540, "lng": 110.1810},
  {"name": "百色市", "province": "广西", "lat": 23.9029, "lng": 106.6183},
  {"name": "贺州市", "province": "广西", "lat": 24.4035, "lng": 111.5526},
  {"name": "河池市", "province": "广西", "lat": 24.6926, "lng": 108.0853},
  {"name": "来宾市", "province": "广西", "lat": 23.7507, "lng": 109.2214},
  {"name": "崇左市", "province": "广西", "lat": 22.3773, "lng": 107.3647},
  {"name": "海口市", "province": "海南省", "lat": 20.0440, "lng": 110.1999},
  {"name": "三亚市", "province": "海南省", "lat": 18.2528, "lng": 109.5120},
  {"name": "三沙市", "province": "海南省", "lat": 16.8333, "lng": 112.3333},
  {"name": "儋州市", "province": "海南省", "lat": 19.5175, "lng": 109.5809},
  {"name": "重庆市", "province": "重庆市", "lat": 29.5630, "lng": 106.5516},
  {"name": "成都市", "province": "四川省", "lat": 30.5728, "lng": 104.0668},
  {"name": "自贡市", "province": "四川省", "lat": 29.3393, "lng": 104.7787},
  {"name": "攀枝花市", "province": "四川省", "lat": 26.5820, "lng": 101.7183},
  {"name": "泸州市", "province": "四川省", "lat": 28.8718, "lng": 105.4423},
  {"name": "德阳市", "province": "四川省", "lat": 31.1269, "lng": 104.3979},
  {"name": "绵阳市", "province": "四川省", "lat": 31.4678, "lng": 104.6794},
  {"name": "广元市", "province": "四川省", "lat": 32.4354, "lng": 105.8436},
  {"name": "遂宁市", "province": "四川省", "lat": 30.5133, "lng": 105.5928},
  {"name": "内江市", "province": "四川省", "lat": 29.5800, "lng": 105.0586},
  {"name": "乐山市", "province": "四川省", "lat": 29.5521, "lng": 103.7656},
  {"name": "南充市", "province": "四川省", "lat": 30.8374, "lng": 106.1106},
  {"name": "眉山市", "province": "四川省", "lat": 30.0754, "lng": 103.8485},
  {"name": "宜宾市", "province": "四川省", "lat": 28.7513, "lng": 104.6433},
  {"name": "广安市", "province": "四川省", "lat": 30.4563, "lng": 106.6333},
  {"name": "达州市", "province": "四川省", "lat": 31.2090, "lng": 107.4680},
  {"name": "雅安市", "province": "四川省", "lat": 29.9807, "lng": 103.0137},
  {"name": "巴中市", "province": "四川省", "lat": 31.8673, "lng": 106.7453},
  {"name": "资阳市", "province": "四川省", "lat": 30.1287, "lng": 104.6278},
  {"name": "阿坝州", "province": "四川省", "lat": 31.8998, "lng": 102.2249},
  {"name": "甘孜州", "province": "四川省", "lat": 30.0500, "lng": 101.9625},
  {"name": "凉山州", "province": "四川省", "lat": 27.8816, "lng": 102.2673},
  {"name": "贵阳市", "province": "贵州省", "lat": 26.6470, "lng": 106.6302},
  {"name": "六盘水市", "province": "贵州省", "lat": 26.5934, "lng": 104.8306},
  {"name": "遵义市", "province": "贵州省", "lat": 27.7256, "lng": 106.9271},
  {"name": "安顺市", "province": "贵州省", "lat": 26.2531, "lng": 105.9473},
  {"name": "毕节市", "province": "贵州省", "lat": 27.2846, "lng": 105.2920},
  {"name": "铜仁市", "province": "贵州省", "lat": 27.7183, "lng": 109.1911},
  {"name": "黔西南州", "province": "贵州省", "lat": 25.0875, "lng": 104.9061},
  {"name": "黔东南州", "province": "贵州省", "lat": 26.5834, "lng": 107.9829},
  {"name": "黔南州", "province": "贵州省", "lat": 26.2582, "lng": 107.5224},
  {"name": "昆明市", "province": "云南省", "lat": 25.0389, "lng": 102.7183},
  {"name": "曲靖市", "province": "云南省", "lat": 25.4907, "lng": 103.7962},
  {"name": "玉溪市", "province": "云南省", "lat": 24.3520, "lng": 102.5428},
  {"name": "保山市", "province": "云南省", "lat": 25.1118, "lng": 99.1672},
  {"name": "昭通市", "province": "云南省", "lat": 27.3380, "lng": 103.7171},
  {"name": "丽江市", "province": "云南省", "lat": 26.8553, "lng": 100.2271},
  {"name": "普洱市", "province": "云南省", "lat": 22.8254, "lng": 100.9660},
  {"name": "临沧市", "province": "云南省", "lat": 23.8779, "lng": 100.0892},
  {"name": "楚雄州", "province": "云南省", "lat": 25.0320, "lng": 101.5461},
  {"name": "红河州", "province": "云南省", "lat": 23.3639, "lng": 103.3756},
  {"name": "文山州", "province": "云南省", "lat": 23.3695, "lng": 104.2463},
  {"name": "西双版纳州", "province": "云南省", "lat": 22.0074, "lng": 100.7971},
  {"name": "大理州", "province": "云南省", "lat": 25.5916, "lng": 100.2252},
  {"name": "德宏州", "province": "云南省", "lat": 24.4337, "lng": 98.5849},
  {"name": "怒江州", "province": "云南省", "lat": 25.8171, "lng": 98.8567},
  {"name": "迪庆州", "province": "云南省", "lat": 27.8189, "lng": 99.7068},
  {"name": "拉萨市", "province": "西藏", "lat": 29.6500, "lng": 91.1000},
  {"name": "日喀则市", "province": "西藏", "lat": 29.2500, "lng": 88.8833},
  {"name": "昌都市", "province": "西藏", "lat": 31.1400, "lng": 97.1700},
  {"name": "林芝市", "province": "西藏", "lat": 29.6490, "lng": 94.3620},
  {"name": "山南市", "province": "西藏", "lat": 29.2378, "lng": 91.7665},
  {"name": "那曲市", "province": "西藏", "lat": 31.4762, "lng": 92.0516},
  {"name": "阿里地区", "province": "西藏", "lat": 32.5000, "lng": 80.1000},
  {"name": "西安市", "province": "陕西省", "lat": 34.3416, "lng": 108.9398},
  {"name": "铜川市", "province": "陕西省", "lat": 34.8966, "lng": 108.9450},
  {"name": "宝鸡市", "province": "陕西省", "lat": 34.3614, "lng": 107.2370},
  {"name": "咸阳市", "province": "陕西省", "lat": 34.3296, "lng": 108.7088},
  {"name": "渭南市", "province": "陕西省", "lat": 34.4998, "lng": 109.5099},
  {"name": "延安市", "province": "陕西省", "lat": 36.5853, "lng": 109.4898},
  {"name": "汉中市", "province": "陕西省", "lat": 33.0678, "lng": 107.0230},
  {"name": "榆林市", "province": "陕西省", "lat": 38.2854, "lng": 109.7347},
  {"name": "安康市", "province": "陕西省", "lat": 32.6903, "lng": 109.0293},
  {"name": "商洛市", "province": "陕西省", "lat": 33.8702, "lng": 109.9403},
  {"name": "兰州市", "province": "甘肃省", "lat": 36.0611, "lng": 103.8343},
  {"name": "嘉峪关市", "province": "甘肃省", "lat": 39.7727, "lng": 98.2773},
  {"name": "金昌市", "province": "甘肃省", "lat": 38.5149, "lng": 102.1879},
  {"name": "白银市", "province": "甘肃省", "lat": 36.5448, "lng": 104.1384},
  {"name": "天水市", "province": "甘肃省", "lat": 34.5809, "lng": 105.7249},
  {"name": "武威市", "province": "甘肃省", "lat": 37.9283, "lng": 102.6371},
  {"name": "张掖市", "province": "甘肃省", "lat": 38.9260, "lng": 100.4495},
  {"name": "平凉市", "province": "甘肃省", "lat": 35.5428, "lng": 106.6849},
  {"name": "酒泉市", "province": "甘肃省", "lat": 39.7460, "lng": 98.4941},
  {"name": "庆阳市", "province": "甘肃省", "lat": 35.7091, "lng": 107.6432},
  {"name": "定西市", "province": "甘肃省", "lat": 35.5807, "lng": 104.5923},
  {"name": "陇南市", "province": "甘肃省", "lat": 33.3884, "lng": 104.9219},
  {"name": "临夏州", "province": "甘肃省", "lat": 35.6044, "lng": 103.2106},
  {"name": "甘南州", "province": "甘肃省", "lat": 34.9864, "lng": 102.9112},
  {"name": "西宁市", "province": "青海省", "lat": 36.6171, "lng": 101.7782},
  {"name": "海东市", "province": "青海省", "lat": 36.4827, "lng": 102.4011},
  {"name": "海北州", "province": "青海省", "lat": 36.9600, "lng": 100.9010},
  {"name": "黄南州", "province": "青海省", "lat": 35.5177, "lng": 102.0153},
  {"name": "海南州", "province": "青海省", "lat": 36.2866, "lng": 100.6198},
  {"name": "果洛州", "province": "青海省", "lat": 34.4736, "lng": 100.2449},
  {"name": "玉树州", "province": "青海省", "lat": 33.0042, "lng": 97.0085},
  {"name": "海西州", "province": "青海省", "lat": 37.3732, "lng": 97.3707},
  {"name": "银川市", "province": "宁夏", "lat": 38.4872, "lng": 106.2309},
  {"name": "石嘴山市", "province": "宁夏", "lat": 38.9835, "lng": 106.3761},
  {"name": "吴忠市", "province": "宁夏", "lat": 37.9977, "lng": 106.1986},
  {"name": "固原市", "province": "宁夏", "lat": 36.0160, "lng": 106.2425},
  {"name": "中卫市", "province": "宁夏", "lat": 37.5149, "lng": 105.1966},
  {"name": "乌鲁木齐市", "province": "新疆", "lat": 43.8256, "lng": 87.6168},
  {"name": "克拉玛依市", "province": "新疆", "lat": 45.5796, "lng": 84.8892},
  {"name": "吐鲁番市", "province": "新疆", "lat": 42.9513, "lng": 89.1895},
  {"name": "哈密市", "province": "新疆", "lat": 42.8180, "lng": 93.5150},
  {"name": "昌吉州", "province": "新疆", "lat": 44.0114, "lng": 87.3082},
  {"name": "博尔塔拉州", "province": "新疆", "lat": 44.9053, "lng": 82.0749},
  {"name": "巴音郭楞州", "province": "新疆", "lat": 41.7640, "lng": 86.1500},
  {"name": "阿克苏地区", "province": "新疆", "lat": 41.1675, "lng": 80.2651},
  {"name": "克孜勒苏州", "province": "新疆", "lat": 39.7134, "lng": 76.1674},
  {"name": "喀什地区", "province": "新疆", "lat": 39.4704, "lng": 75.9893},
  {"name": "和田地区", "province": "新疆", "lat": 37.1108, "lng": 79.9253},
  {"name": "伊犁州", "province": "新疆", "lat": 43.9219, "lng": 81.3179},
  {"name": "塔城地区", "province": "新疆", "lat": 46.7458, "lng": 82.9803},
  {"name": "阿勒泰地区", "province": "新疆", "lat": 47.8484, "lng": 88.1413},
  {"name": "香港", "province": "香港", "lat": 22.3193, "lng": 114.1694},
  {"name": "澳门", "province": "澳门", "lat": 22.1987, "lng": 113.5439},
  {"name": "台北市", "province": "台湾", "lat": 25.0330, "lng": 121.5654},
  {"name": "高雄市", "province": "台湾", "lat": 22.6273, "lng": 120.3014},
  {"name": "台中市", "province": "台湾", "lat": 24.1477, "lng": 120.6736},
  {"name": "台南市", "province": "台湾", "lat": 22.9999, "lng": 120.2269},
  {"name": "新北市", "province": "台湾", "lat": 25.0170, "lng": 121.4628},
  {"name": "桃园市", "province": "台湾", "lat": 24.9936, "lng": 121.3010}
]
